[
  {
    "nombre": "La Serena",
    "lat": -29.907,
    "lon": -71.252,
    "acum_observado": 72.8,
    "acum_climatologia": 88.0,
    "ratio": 0.8272727272727273,
    "clasificacion": "NORMAL"
  },
  {
    "nombre": "Curacaví",
    "lat": -33.4,
    "lon": -71.133,
    "acum_observado": 331.5,
    "acum_climatologia": 425.0,
    "ratio": 0.78,
    "clasificacion": "SECO"
  },
  {
    "nombre": "Santiago",
    "lat": -33.45,
    "lon": -70.667,
    "acum_observado": 200.0,
    "acum_climatologia": 349.0,
    "ratio": 0.5730659025787965,
    "clasificacion": "MUY SECO"
  },
  {
    "nombre": "Rancagua",
    "lat": -34.17,
    "lon": -70.74,
    "acum_observado": 268.0,
    "acum_climatologia": 678.0,
    "ratio": 0.3952802359882006,
    "clasificacion": "MUY SECO"
  },
  {
    "nombre": "Lolol",
    "lat": -34.73,
    "lon": -71.21,
    "acum_observado": 442.29999999999995,
    "acum_climatologia": 771.0,
    "ratio": 0.5736705577172503,
    "clasificacion": "MUY SECO"
  },
  {
    "nombre": "Talca",
    "lat": -35.427,
    "lon": -71.655,
    "acum_observado": 343.20000000000005,
    "acum_climatologia": 868.0,
    "ratio": 0.39539170506912447,
    "clasificacion": "MUY SECO"
  },
  {
    "nombre": "Concepción",
    "lat": -36.827,
    "lon": -73.05,
    "acum_observado": 488.69999999999993,
    "acum_climatologia": 1072.0,
    "ratio": 0.4558768656716417,
    "clasificacion": "MUY SECO"
  },
  {
    "nombre": "Temuco",
    "lat": -37.467,
    "lon": -72.35,
    "acum_observado": 535.3,
    "acum_climatologia": 1205.0,
    "ratio": 0.4442323651452282,
    "clasificacion": "MUY SECO"
  },
  {
    "nombre": "Valdivia",
    "lat": -38.74,
    "lon": -72.59,
    "acum_observado": 529.9,
    "acum_climatologia": 1333.0,
    "ratio": 0.3975243810952738,
    "clasificacion": "MUY SECO"
  },
  {
    "nombre": "Puerto Montt",
    "lat": -41.467,
    "lon": -72.933,
    "acum_observado": 839.7,
    "acum_climatologia": 1837.0,
    "ratio": 0.45710397387044094,
    "clasificacion": "MUY SECO"
  }
]